Name,Latitude,Longitude,RadiusInPixelsRange10-100
Antigua,14.5585707,-90.729523,1000
Queztaltenango,14.8520705,-91.5305465,1000
Huehuetenango,15.3198766,-91.4918235,5000
Yulais,15.7331923,-91.4603869,5000
Semuc Champey,15.783471,-90.230759,10000
